{"type":"FeatureCollection","features":[{"type":"Feature","properties":{"name":"Aspen Whitewater Rafting","link":"https://aspenwhitewater.com/","phone":"(970) 920-3511"},"geometry":{"type":"Point","coordinates":[-106.8183408,39.18737362]}},{"type":"Feature","properties":{"name":"Three Rivers Resort & Rafting","link":"https://3riversresort.com/ ","phone":"(970) 641-1303"},"geometry":{"type":"Point","coordinates":[-106.8440755,38.66407625]}},{"type":"Feature","properties":{"name":"AVA - Colorado Rafting & Zipline","link":"https://www.coloradorafting.net/?utm_campaign=Arkansas+Valley+Adventures+Branded&utm_term=ava%20colorado%20rafting%20%26%20zipline&utm_source=adwords&utm_medium=ppc&hsa_net=adwords&hsa_ver=3&hsa_grp=5964097859&hsa_tgt=kwd-324187809502&hsa_kw=ava%20colorado%20rafting%20%26%20zipline&hsa_cam=109871939&hsa_ad=20837861579&hsa_src=g&hsa_acc=8452621190&hsa_mt=e&gad_source=1&gclid=Cj0KCQjwiYOxBhC5ARIsAIvdH52HZMlMekhaTMxR0KZVGvqRBUL5UiD-bj4_jypKRMdVQNR8rBYJdJUaAr9MEALw_wcB","phone":"(970) 423-7031"},"geometry":{"type":"Point","coordinates":[-105.523466,39.73778852]}},{"type":"Feature","properties":{"name":"Defiace Rafting Company","link":"https://www.raftdefiance.com/","phone":"(970) 404-3022"},"geometry":{"type":"Point","coordinates":[-107.2936848,39.55848133]}},{"type":"Feature","properties":{"name":"Colorado Outback Adventures","link":"https://www.coloradooutbackadventures.com/","phone":"(970) 903-1923"},"geometry":{"type":"Point","coordinates":[-107.8684495,37.24652113]}},{"type":"Feature","properties":{"name":"Geo Tours Whitewater Raft Trips","link":"http://www.georafting.com/","phone":"(303) 756-6070"},"geometry":{"type":"Point","coordinates":[-105.1943346,39.65219079]}},{"type":"Feature","properties":{"name":"River Runners Royal Gorge","link":"https://whitewater.net/","phone":"(719) 275-2291"},"geometry":{"type":"Point","coordinates":[-105.3287269,38.49707579]}},{"type":"Feature","properties":{"name":"American Adventure Expeditions","link":"http://www.americanadventure.com/","phone":"(719) 395-2409"},"geometry":{"type":"Point","coordinates":[-106.1056323,38.81235911]}},{"type":"Feature","properties":{"name":"Rocky Mountain Adventures","link":"http://www.shoprma.com/","phone":"(970) 493-4005"},"geometry":{"type":"Point","coordinates":[-105.096196,40.62508014]}},{"type":"Feature","properties":{"name":"KODI Rafting","link":"http://www.whitewatercolorado.com/","phone":"(970) 668-1548"},"geometry":{"type":"Point","coordinates":[-106.0955765,39.58812163]}},{"type":"Feature","properties":{"name":"Southwest Raft and Jeep","link":"http://www.southwestraftandjeep.com/","phone":"(970) 259-8313"},"geometry":{"type":"Point","coordinates":[-107.8775608,37.25195825]}},{"type":"Feature","properties":{"name":"Colorado Rafting Company","link":"https://www.coloradoraftingcompany.com/","phone":"(970) 893-8007"},"geometry":{"type":"Point","coordinates":[-106.0741781,39.61734462]}},{"type":"Feature","properties":{"name":"Durango Rivertrippers & Adventure Tours","link":"http://www.durangorivertrippers.com/","phone":"(970) 259-0289"},"geometry":{"type":"Point","coordinates":[-107.8747456,37.25162679]}},{"type":"Feature","properties":{"name":"Clear Creek Rafting Co.","link":"http://www.raftroyalgorge.com/","phone":"(303) 567-1000"},"geometry":{"type":"Point","coordinates":[-105.3288636,38.49656998]}},{"type":"Feature","properties":{"name":"Echo Canyon River Expeditions","link":"https://www.raftecho.com/?utm_source=colorado-com&utm_medium=display&utm_content=raftecho-listing&utm_campaign=web","phone":"(719) 275-3154"},"geometry":{"type":"Point","coordinates":[-105.3209276,38.49592405]}},{"type":"Feature","properties":{"name":"Rocky Mountain Outdoor Center","link":"http://www.rmoc.com/","phone":"(719) 395-3335"},"geometry":{"type":"Point","coordinates":[-106.0918423,38.7634905]}},{"type":"Feature","properties":{"name":"Wilderness Aware Rafting","link":"https://www.inaraft.com/","phone":"N/A"},"geometry":{"type":"Point","coordinates":[-106.1026005,38.81432861]}},{"type":"Feature","properties":{"name":"Colorado Adventure Center","link":"https://www.raftingcolorado.com/?utm_source-coloradocom","phone":"N/A"},"geometry":{"type":"Point","coordinates":[-105.5781527,39.76210818]}},{"type":"Feature","properties":{"name":"River Runners Browns Canyon","link":"https://www.whitewater.net/","phone":"(719) 395-2466"},"geometry":{"type":"Point","coordinates":[-106.0956548,38.76689731]}},{"type":"Feature","properties":{"name":"Aspen Whitewater Rafting (Twin Lakes)","link":"http://www.aspenwhitewater.com/","phone":"(970) 920-3511"},"geometry":{"type":"Point","coordinates":[-106.2948625,39.07771331]}},{"type":"Feature","properties":{"name":"Mad Adventures","link":"https://www.madadventures.com/","phone":"(970) 726-5290"},"geometry":{"type":"Point","coordinates":[-105.7876861,39.92659889]}},{"type":"Feature","properties":{"name":"Buffalo Joe's Whitewater Rafting","link":"http://www.buffalojoe.com/","phone":"(719) 395-8757"},"geometry":{"type":"Point","coordinates":[-106.1307252,38.84255133]}},{"type":"Feature","properties":{"name":"Mild to Wild Rafting/ Piedra River Rafting","link":"https://mild2wildrafting.com/colorado-rafting/upper-piedra-river.html","phone":"(970) 247-4789"},"geometry":{"type":"Point","coordinates":[-107.3465568,37.22807073]}},{"type":"Feature","properties":{"name":"Blazing Adventures","link":"https://www.blazingadventures.com/","phone":"(970) 923-4544"},"geometry":{"type":"Point","coordinates":[-106.818827,39.1869382]}},{"type":"Feature","properties":{"name":"Breckenridge Whitewater Rafting","link":"http://www.breckenridgewhitewater.com/?utm_source=Colorado.com&utm_medium=listing&utm_campaign=Colorado.com%2BListing","phone":"(970) 423-7031"},"geometry":{"type":"Point","coordinates":[-106.0439117,39.49347965]}},{"type":"Feature","properties":{"name":"Adventure Outfitters","link":"https://waorafting.com/#","phone":"(719) 275-5344"},"geometry":{"type":"Point","coordinates":[-105.3238836,38.4957265]}},{"type":"Feature","properties":{"name":"Scenic River Tours, Inc.","link":"http://www.scenicrivertours.com/","phone":"(970) 641-3131"},"geometry":{"type":"Point","coordinates":[-106.9351521,38.54417946]}},{"type":"Feature","properties":{"name":"Adventure Paddle Tours","link":"https://adventurepaddletours.com/kayak-tours/frisco-co/","phone":"N/A"},"geometry":{"type":"Point","coordinates":[-106.0902555,39.57713918]}},{"type":"Feature","properties":{"name":"Glenwood Adventure Company","link":"https://glenwoodadventure.com/","phone":"(970) 945-7529"},"geometry":{"type":"Point","coordinates":[-107.3178712,39.5176014]}},{"type":"Feature","properties":{"name":"Downstream Adventures - Upper Colorado River","link":"https://raftcoloradowhitewater.com/","phone":"(844) 291-4218"},"geometry":{"type":"Point","coordinates":[-106.3962194,40.0586381]}},{"type":"Feature","properties":{"name":"Durango Rafting Co.","link":"http://durangoraft.com/","phone":"(970) 259-2252"},"geometry":{"type":"Point","coordinates":[-107.8777861,37.25201803]}}]}